,City,Lat,Lng,Max Temp,Humidity,Cloudiness,Wind Speed,Country,Date
0,mataura,-46.19,168.86,3.89,83,100,1.34,NZ,1595444293
1,puerto escondido,15.85,-97.07,29.0,74,40,5.1,MX,1595444344
2,kapaa,22.08,-159.32,26.67,100,90,1.49,US,1595444010
3,mahebourg,-20.41,57.7,20.0,68,40,5.1,MU,1595444061
4,leningradskiy,69.38,178.42,14.89,50,100,2.98,RU,1595444088
5,estacion coahuila,32.19,-115.0,37.0,39,5,4.1,MX,1595444495
6,vardo,70.37,31.11,9.0,100,90,14.4,NO,1595444496
7,bredasdorp,-34.53,20.04,11.0,93,0,0.9,ZA,1595444497
8,codrington,-38.27,141.97,8.13,81,100,1.4,AU,1595444497
9,ancud,-41.87,-73.82,11.0,53,100,3.6,CL,1595444436
10,karaton,-6.34,106.1,26.0,83,20,1.0,ID,1595444497
11,bambous virieux,-20.34,57.76,20.0,68,40,5.1,MU,1595444497
12,college,64.86,-147.8,13.0,76,90,1.5,US,1595444498
13,salalah,17.02,54.09,27.0,88,75,4.6,OM,1595444310
14,carballo,43.21,-8.69,25.0,61,0,2.6,ES,1595444499
15,qandala,11.47,49.87,31.92,47,76,4.28,SO,1595444499
16,faanui,-16.48,-151.75,25.06,79,27,8.61,PF,1595444499
17,lompoc,34.64,-120.46,16.67,77,0,4.68,US,1595444499
18,hobart,-42.88,147.33,6.67,86,1,0.5,AU,1595444357
19,san andres,12.58,-81.7,31.0,74,75,3.1,CO,1595444422
20,rantepao,-2.97,119.9,19.75,91,92,0.44,ID,1595444379
21,jamestown,42.1,-79.24,26.67,69,75,4.6,US,1595444184
22,sohbatpur,28.52,68.54,36.34,40,0,4.45,PK,1595444500
23,sozimskiy,59.74,52.25,16.08,94,100,2.9,RU,1595444500
24,hukuntsi,-24.0,21.75,10.55,40,0,2.95,BW,1595444500
25,mao,39.89,4.27,26.0,69,20,5.1,ES,1595444500
26,clyde river,70.47,-68.59,8.0,87,90,1.5,CA,1595444309
27,severo-kurilsk,50.68,156.12,9.82,88,54,0.78,RU,1595444339
28,thompson,55.74,-97.86,26.0,47,75,4.1,CA,1595444099
29,busselton,-33.65,115.33,14.44,55,8,9.53,AU,1595444059
30,aksarka,66.56,67.8,8.82,80,0,1.95,RU,1595444501
31,tuktoyaktuk,69.45,-133.04,7.0,87,90,3.6,CA,1595443992
32,itarema,-2.92,-39.92,27.66,61,10,7.42,BR,1595444311
33,punta arenas,-53.15,-70.92,-2.0,92,40,4.1,CL,1595443782
34,tilichiki,60.47,166.1,9.93,75,36,1.41,RU,1595444504
35,kidodi,-7.6,37.0,23.2,53,99,1.53,TZ,1595444504
36,benjamin constant,-4.38,-70.03,31.0,66,75,2.1,BR,1595444504
37,kaitangata,-46.28,169.85,2.78,75,54,7.15,NZ,1595444291
38,japura,-0.32,102.35,23.58,87,71,0.45,ID,1595444467
39,naze,28.37,129.48,25.0,100,100,1.0,JP,1595444084
40,carnarvon,-24.87,113.63,14.0,100,0,3.1,AU,1595444316
41,zeerust,-25.54,26.08,12.0,16,0,1.5,ZA,1595444507
42,port alfred,-33.59,26.89,17.33,83,0,3.55,ZA,1595444298
43,kieta,-6.22,155.63,25.56,79,72,2.52,PG,1595444507
44,puerto ayora,-0.74,-90.35,26.0,61,40,9.3,EC,1595444296
45,albany,42.6,-73.97,30.56,56,78,1.45,US,1595443860
46,labuan,5.28,115.24,26.0,94,40,3.27,MY,1595444498
47,salta,-24.79,-65.41,13.0,76,75,2.6,AR,1595444437
48,alexandria,31.22,29.96,25.46,81,0,6.4,EG,1595444457
49,rikitea,-23.12,-134.97,19.7,59,100,6.25,PF,1595444279
50,dzhankoy,45.72,34.4,23.25,48,0,4.42,UA,1595444513
51,mount isa,-20.73,139.5,14.0,33,0,3.1,AU,1595444514
52,hispania,5.8,-75.91,27.0,47,40,2.1,CO,1595444515
53,ponta do sol,32.67,-17.1,20.56,70,0,2.03,PT,1595444316
54,nelson bay,-32.72,152.15,7.78,100,75,2.1,AU,1595444249
55,abu samrah,35.3,37.18,25.83,42,0,4.44,SY,1595444517
56,vaini,-21.2,-175.2,14.0,100,20,1.0,TO,1595444278
57,saquarema,-22.92,-42.51,25.0,73,20,4.1,BR,1595444510
58,nikolskoye,59.7,30.79,16.0,77,40,5.0,RU,1595444047
59,hilo,19.73,-155.09,24.0,64,90,2.6,US,1595444191
60,ngunguru,-35.62,174.5,11.11,3,12,2.24,NZ,1595444452
61,cabo san lucas,22.89,-109.91,32.22,62,5,5.1,MX,1595444091
62,sao filipe,14.9,-24.5,26.02,82,79,3.43,CV,1595444329
63,qadirpur ran,30.29,71.67,31.0,70,0,3.1,PK,1595444518
64,hermanus,-34.42,19.23,12.22,94,0,2.4,ZA,1595444289
65,port lincoln,-34.73,135.87,9.6,81,2,3.94,AU,1595444304
66,khatanga,71.97,102.5,9.31,79,100,4.5,RU,1595444285
67,butaritari,3.07,172.79,28.45,75,93,6.99,KI,1595444306
68,dikson,73.51,80.55,4.68,92,0,2.65,RU,1595444334
69,livingston,55.9,-3.52,17.0,82,90,2.6,GB,1595444384
70,barrow,71.29,-156.79,3.0,93,90,4.1,US,1595444059
71,poum,-20.23,164.02,21.5,76,64,9.43,NC,1595444326
72,susehri,40.16,38.09,15.3,72,12,2.52,TR,1595444523
73,torbay,47.67,-52.73,25.0,44,75,9.3,CA,1595444317
74,fortuna,40.6,-124.16,16.11,87,40,3.1,US,1595444285
75,bontang,0.13,117.5,25.64,86,100,2.0,ID,1595444524
76,lorengau,-2.02,147.27,27.87,76,30,3.48,PG,1595444092
77,georgetown,5.41,100.34,26.0,94,40,0.77,MY,1595444088
78,castro,-24.79,-50.01,22.27,54,84,2.1,BR,1595444070
79,sitka,57.05,-135.33,14.0,82,90,2.1,US,1595444102
80,hamilton,39.18,-84.53,23.0,94,75,1.5,US,1595444295
81,longyearbyen,78.22,15.64,9.0,76,75,5.1,SJ,1595444339
82,charlestown,-32.95,151.67,8.89,91,100,1.59,AU,1595444334
83,saint-philippe,-21.36,55.77,20.0,56,90,3.6,RE,1595444007
84,la virtud,14.05,-88.7,27.22,69,20,2.6,HN,1595444528
85,arraial do cabo,-22.97,-42.03,25.0,73,20,4.1,BR,1595444054
86,dunedin,-45.87,170.5,4.44,75,48,3.58,NZ,1595444439
87,kloulklubed,7.04,134.26,25.0,94,75,3.51,PW,1595444528
88,ribeira grande,38.52,-28.7,23.0,69,40,3.6,PT,1595444076
89,ushuaia,-54.8,-68.3,3.0,69,97,2.1,AR,1595444039
90,nampula,-15.12,39.27,15.72,83,5,2.33,MZ,1595444530
91,yulara,-25.24,130.99,6.0,75,0,3.1,AU,1595444531
92,hasaki,35.73,140.83,23.0,100,75,1.0,JP,1595444081
93,tiznit,29.58,-9.5,30.04,33,0,2.16,MA,1595444331
94,dhule,20.9,74.78,27.65,77,100,3.32,IN,1595444532
95,buala,-8.14,159.59,26.2,82,97,3.91,SB,1595444532
96,airai,-8.93,125.41,12.07,65,99,1.68,TL,1595444303
97,yenagoa,4.92,6.26,24.14,90,87,2.51,NG,1595444532
98,ulladulla,-35.35,150.47,9.0,81,75,4.6,AU,1595444387
99,sao joao da barra,-21.64,-41.05,29.0,51,0,6.2,BR,1595444053
100,lugovoy,42.95,72.76,23.14,30,0,3.36,KZ,1595444533
101,itoman,26.12,127.67,28.0,78,40,1.5,JP,1595444533
102,robertsport,6.75,-11.37,25.24,87,100,4.8,LR,1595444533
103,kalga,50.93,118.9,16.48,81,100,1.61,RU,1595444533
104,beyneu,45.32,55.2,26.56,45,0,4.18,KZ,1595444533
105,avarua,-21.21,-159.78,24.0,94,0,7.2,CK,1595444060
106,giovinazzo,41.19,16.67,27.22,57,0,1.0,IT,1595444534
107,vila velha,-20.33,-40.29,27.0,65,20,5.1,BR,1595444291
108,marandahalli,12.4,78.0,25.73,76,100,1.18,IN,1595444534
109,astoria,46.19,-123.83,17.22,82,90,4.1,US,1595444064
110,norman wells,65.28,-126.83,12.0,87,75,6.7,CA,1595444358
111,polson,47.69,-114.16,28.89,62,0,0.89,US,1595444405
112,sisimiut,66.94,-53.67,13.07,71,2,2.43,GL,1595444534
113,hithadhoo,-0.6,73.08,28.84,72,77,3.29,MV,1595444322
114,colares,38.8,-9.45,26.67,54,0,5.7,PT,1595444535
115,svetlogorsk,52.63,29.73,13.71,71,0,4.37,BY,1595444535
116,lermontovka,47.15,134.34,18.44,92,92,0.76,RU,1595444535
117,san jeronimo,-11.95,-75.28,17.91,28,0,0.22,PE,1595444535
118,yerbogachen,61.28,108.01,9.49,91,0,0.91,RU,1595444535
119,ilulissat,69.22,-51.1,13.0,50,40,2.6,GL,1595444377
120,cuamba,-14.8,36.54,16.75,76,1,3.84,MZ,1595444536
121,bratsk,56.13,101.61,13.0,93,0,3.0,RU,1595444536
122,chuy,-33.7,-53.46,18.18,99,100,2.09,UY,1595444297
123,katsuura,35.13,140.3,25.0,92,100,2.53,JP,1595444095
124,kahului,20.89,-156.47,28.0,58,20,1.5,US,1595444376
125,mehamn,71.04,27.85,9.0,100,75,7.2,NO,1595444328
126,port macquarie,-31.43,152.92,9.44,96,100,2.09,AU,1595444538
127,husavik,66.04,-17.34,11.0,71,75,6.7,IS,1595444352
128,prerov,49.46,17.45,20.56,67,0,2.81,CZ,1595444539
129,wegorzewo,54.22,21.74,11.1,89,5,3.18,PL,1595444540
130,arlit,18.74,7.39,38.99,15,83,1.97,NE,1595444540
131,basco,20.45,121.97,29.37,80,10,4.67,PH,1595444540
132,dicabisagan,17.08,122.42,26.86,79,0,1.25,PH,1595444540
133,bluff,-46.6,168.33,3.89,83,99,1.34,NZ,1595444295
134,dinar,38.06,30.17,24.0,33,0,4.1,TR,1595444541
135,yellowknife,62.46,-114.35,19.0,77,75,6.7,CA,1595444284
136,awjilah,29.11,21.29,26.83,52,0,9.35,LY,1595444298
137,makakilo city,21.35,-158.09,27.0,74,1,1.5,US,1595444544
138,port-gentil,-0.72,8.78,26.0,78,20,6.4,GA,1595444060
139,pangnirtung,66.15,-65.71,10.0,87,90,8.7,CA,1595444458
140,oranjestad,12.52,-70.03,33.0,55,20,9.8,AW,1595444534
141,talaya,61.38,152.75,13.44,65,34,3.21,RU,1595444547
142,aswan,24.09,32.91,34.18,14,0,5.88,EG,1595444547
143,port hardy,50.7,-127.42,17.0,77,75,3.1,CA,1595444401
144,puerto ayacucho,5.66,-67.62,28.0,69,40,1.5,VE,1595444284
145,cape town,-33.93,18.42,13.89,93,0,3.6,ZA,1595444073
146,nanortalik,60.14,-45.24,13.19,59,69,6.11,GL,1595444370
147,qasigiannguit,68.82,-51.19,13.0,50,40,2.6,GL,1595444548
148,uyemskiy,64.47,40.85,18.0,93,40,4.0,RU,1595444548
149,cherskiy,68.75,161.3,19.92,47,100,3.96,RU,1595444085
150,saskylakh,71.92,114.08,7.46,91,100,4.94,RU,1595444288
151,kununurra,-15.77,128.73,12.0,38,0,0.5,AU,1595444549
152,carlisle,40.2,-77.19,33.33,58,84,1.34,US,1595444549
153,pevek,69.7,170.31,11.33,49,100,3.88,RU,1595444056
154,saeby,57.33,10.52,15.56,74,0,2.24,DK,1595444549
155,syamzha,60.02,41.06,13.97,95,100,3.17,RU,1595444549
156,farafangana,-22.82,47.83,18.37,68,37,3.55,MG,1595444408
157,coquimbo,-29.95,-71.34,15.0,62,40,4.6,CL,1595444350
158,rayevskiy,54.07,54.95,15.61,95,100,3.04,RU,1595444550
159,la ronge,55.1,-105.28,24.0,64,75,5.1,CA,1595444551
160,san buenaventura,27.08,-101.53,29.0,66,75,4.28,MX,1595444551
161,anamur,36.08,32.84,27.0,74,0,1.0,TR,1595444295
162,tigil,57.8,158.67,9.61,77,67,1.36,RU,1595444551
163,qaanaaq,77.48,-69.36,8.9,52,0,0.53,GL,1595444114
164,burewala,30.17,72.65,33.71,40,0,2.1,PK,1595444552
165,san carlos de bariloche,-41.15,-71.31,0.0,94,90,4.6,AR,1595444276
166,chara,56.91,118.26,11.42,66,60,0.36,RU,1595444552
167,bengkulu,-3.8,102.27,23.81,89,94,2.2,ID,1595444391
168,nikolsk,53.72,46.07,16.3,89,100,2.47,RU,1595444552
169,namibe,-15.2,12.15,19.45,73,17,2.18,AO,1595444335
170,mount gambier,-37.83,140.77,7.0,100,90,2.1,AU,1595444342
171,el sauzal,31.9,-116.68,20.56,82,12,0.89,MX,1595444553
172,east london,-33.02,27.91,17.92,74,0,2.41,ZA,1595444331
173,yumen,40.28,97.2,22.08,44,100,3.3,CN,1595444553
174,comodoro rivadavia,-45.87,-67.5,4.0,80,40,2.1,AR,1595444392
175,merrill,45.18,-89.68,21.0,64,75,3.6,US,1595444555
176,joshimath,30.57,79.57,16.75,49,24,1.19,IN,1595444353
177,anloga,5.79,0.9,25.0,88,20,4.1,GH,1595444556
178,seoul,37.57,126.98,22.0,94,90,1.16,KR,1595444553
179,kodiak,57.79,-152.41,17.0,55,1,4.6,US,1595444293
180,kulhudhuffushi,6.62,73.07,27.75,78,100,5.85,MV,1595444456
181,tautira,-17.73,-149.15,26.0,69,40,8.3,PF,1595444312
182,upernavik,72.79,-56.15,9.04,64,0,5.57,GL,1595444280
183,karpogory,64.0,44.45,18.39,81,100,4.69,RU,1595444558
184,usinsk,65.99,57.53,17.95,66,0,3.04,RU,1595444558
185,rocha,-34.48,-54.33,19.08,96,100,2.56,UY,1595444400
186,hofn,64.25,-15.21,12.0,81,75,4.1,IS,1595444098
187,mitsamiouli,-11.38,43.28,24.63,64,10,4.77,KM,1595444559
188,bereznik,62.86,42.71,16.58,96,48,3.27,RU,1595444559
189,sao raimundo das mangabeiras,-7.02,-45.48,33.93,29,100,4.1,BR,1595444559
190,bam,29.11,58.36,30.06,12,0,4.33,IR,1595444519
191,nome,64.5,-165.41,11.11,93,90,1.58,US,1595444386
192,asau,46.43,26.4,17.22,96,93,1.48,RO,1595444559
193,kapuskasing,49.42,-82.43,23.0,46,90,1.5,CA,1595444561
194,new norfolk,-42.78,147.06,5.56,86,6,0.45,AU,1595444060
195,labuhan,-6.88,112.21,24.37,86,4,3.54,ID,1595444562
196,obihiro,42.92,143.2,18.48,96,100,0.5,JP,1595444562
197,jagraon,30.78,75.48,29.97,49,0,2.09,IN,1595444562
198,bilibino,68.05,166.44,20.02,44,100,1.34,RU,1595444058
199,kismayo,-0.36,42.55,25.18,74,62,9.34,SO,1595444330
200,belyy yar,53.6,91.39,15.0,87,79,2.0,RU,1595444562
201,tambopata,-12.73,-69.18,29.0,79,75,1.5,PE,1595444562
202,lavrentiya,65.58,-171.0,9.97,58,0,0.66,RU,1595444306
203,shakawe,-18.37,21.85,15.01,34,0,2.2,BW,1595444526
204,chokurdakh,70.63,147.92,23.67,51,91,2.05,RU,1595444332
205,anadyr,64.75,177.48,11.0,81,0,5.0,RU,1595444126
206,victoria,22.29,114.16,30.0,74,20,4.6,HK,1595444264
207,searcy,35.25,-91.74,31.67,83,40,2.1,US,1595444325
208,egvekinot,66.32,-179.17,11.81,62,41,0.95,RU,1595444398
209,livingstone,-17.84,25.85,14.4,51,0,2.39,ZM,1595444563
210,awbari,26.59,12.78,30.11,19,0,3.52,LY,1595444563
211,traverse city,44.76,-85.62,26.67,78,75,1.5,US,1595444564
212,caravelas,-17.71,-39.25,24.3,56,0,2.29,BR,1595444343
213,high level,58.52,-117.14,20.0,68,75,3.6,CA,1595444564
214,natal,-5.79,-35.21,28.0,65,75,9.3,BR,1595444336
215,tasiilaq,65.61,-37.64,7.0,81,40,3.1,GL,1595444075
216,neuquen,-38.95,-68.06,3.0,93,90,4.6,AR,1595444361
217,te anau,-45.42,167.72,1.06,88,96,1.8,NZ,1595444564
218,los llanos de aridane,28.66,-17.92,24.0,73,40,6.2,ES,1595444060
219,tessalit,20.2,1.01,36.49,20,22,3.21,ML,1595444318
220,srednekolymsk,67.45,153.68,21.43,41,77,3.17,RU,1595444071
221,umm lajj,25.02,37.27,30.85,62,0,2.7,SA,1595444101
222,smithers,54.78,-127.17,16.0,63,75,3.6,CA,1595444302
223,beringovskiy,63.05,179.32,8.82,80,0,1.85,RU,1595444062
224,bajitpur,24.22,90.95,24.96,94,100,3.12,BD,1595444565
225,sinjar,36.32,41.88,32.97,12,0,6.73,IQ,1595444565
226,luderitz,-26.65,15.16,15.0,77,0,0.5,NA,1595444308
227,broken hill,-31.95,141.43,5.0,80,0,3.6,AU,1595444566
228,mataram,-8.58,116.12,23.0,100,20,3.69,ID,1595444567
229,nakhon nayok,14.2,101.21,30.56,100,55,1.96,TH,1595444567
230,hirara,24.8,125.28,28.77,82,77,5.62,JP,1595444567
231,catuday,16.29,119.81,27.63,80,0,2.12,PH,1595444567
232,dubbo,-32.25,148.62,3.0,100,7,4.6,AU,1595444415
233,iranshahr,27.2,60.68,35.0,39,0,5.1,IR,1595444567
234,eureka,40.8,-124.16,18.89,72,90,2.6,US,1595444567
235,constitucion,-35.33,-72.42,12.8,64,7,1.87,CL,1595444391
236,jacareacanga,-6.22,-57.75,35.0,39,0,2.1,BR,1595444369
237,saldanha,-33.01,17.94,13.0,82,0,2.1,ZA,1595444525
238,atuona,-9.8,-139.03,26.5,72,0,8.22,PF,1595444074
239,strezhevoy,60.73,77.59,12.0,76,20,3.0,RU,1595444568
240,pozo colorado,-23.49,-58.8,32.76,26,0,4.63,PY,1595444568
241,tiksi,71.69,128.87,10.62,83,96,0.89,RU,1595444080
242,homer,59.64,-151.55,13.0,87,90,5.7,US,1595444569
243,chimbote,-9.09,-78.58,18.81,70,82,5.27,PE,1595444118
244,balatonlelle,46.78,17.7,23.0,78,100,1.5,HU,1595444569
245,bayir,37.27,28.22,27.0,57,0,0.96,TR,1595444569
246,vestmanna,62.16,-7.17,11.0,81,100,2.6,FO,1595444569
247,verdun,49.25,5.33,21.67,49,0,0.89,FR,1595444570
248,eyl,7.98,49.82,27.06,65,49,10.98,SO,1595444315
249,landeck,47.13,10.56,15.0,93,40,0.77,AT,1595444570
250,lata,40.16,-8.33,28.33,40,0,2.24,PT,1595444570
251,fukue,32.69,128.84,25.69,92,99,2.02,JP,1595444571
252,pochutla,15.74,-96.47,31.0,62,75,3.05,MX,1595444571
253,carauari,-4.88,-66.9,33.5,38,86,0.32,BR,1595444571
254,sistranda,63.73,8.83,11.11,81,40,6.7,NO,1595444571
255,aklavik,68.22,-135.01,8.0,75,75,2.6,CA,1595444346
256,bandrele,-12.91,45.19,24.0,64,47,6.7,YT,1595444572
257,sakaiminato,35.55,133.23,21.0,100,75,1.0,JP,1595444509
258,laguna,38.42,-121.42,25.0,53,1,5.7,US,1595444059
259,cordoba,-31.41,-64.18,16.11,62,75,2.6,AR,1595444362
260,malanje,-9.54,16.34,19.38,27,0,0.93,AO,1595444573
261,burnie,-41.07,145.92,6.11,81,12,1.34,AU,1595444574
262,olesno,50.88,18.42,14.44,74,2,1.3,PL,1595444574
263,deputatskiy,69.3,139.9,21.62,47,100,3.98,RU,1595444396
264,kaeo,-35.1,173.78,11.11,3,9,2.24,NZ,1595444352
265,inirida,3.87,-67.92,27.97,72,100,0.66,CO,1595444575
266,siocon,7.71,122.14,25.92,82,100,1.41,PH,1595444575
267,itupeva,-23.15,-47.06,27.0,28,0,2.1,BR,1595444461
268,amapa,1.0,-52.0,26.63,93,97,1.12,BR,1595444576
269,amahai,-3.33,128.92,24.83,87,41,3.81,ID,1595444576
270,geraldton,-28.77,114.6,15.0,93,75,2.1,AU,1595444397
271,harper,4.38,-7.72,24.29,85,86,5.02,LR,1595444576
272,hovd,48.01,91.64,16.56,69,7,1.83,MN,1595444389
273,bilma,18.69,12.92,35.3,22,57,0.7,NE,1595444340
274,saint-louis,16.33,-15.0,37.0,47,4,2.11,SN,1595444577
275,sinazongwe,-17.26,27.46,18.67,44,0,2.13,ZM,1595444577
276,pathein,16.78,94.73,25.78,87,100,2.52,MM,1595444577
277,namatanai,-3.67,152.43,25.98,80,99,2.93,PG,1595444577
278,yining,29.04,114.56,25.7,79,100,1.34,CN,1595444577
279,hambantota,6.12,81.12,26.0,100,40,2.1,LK,1595444578
280,thinadhoo,0.53,72.93,28.71,74,65,5.15,MV,1595444578
281,hirado,33.36,129.55,26.67,94,100,1.26,JP,1595444374
282,balabac,7.99,117.06,27.79,82,91,4.37,PH,1595444546
283,grindavik,63.84,-22.43,12.0,62,40,6.2,IS,1595444369
284,sao miguel do araguaia,-13.28,-50.16,33.24,26,0,1.65,BR,1595444353
285,covington,39.08,-84.51,22.0,94,75,1.5,US,1595444579
286,bandarbeyla,9.49,50.81,25.18,77,20,13.13,SO,1595444579
287,oistins,13.07,-59.53,31.0,55,40,9.3,BB,1595444579
288,cabot,34.97,-92.02,31.11,78,75,2.1,US,1595444455
289,vysokogornyy,50.12,139.15,14.61,95,100,1.13,RU,1595444580
290,metro,-5.11,105.31,23.15,92,100,1.74,ID,1595444580
291,mar del plata,-38.0,-57.56,10.0,93,90,12.9,AR,1595444027
292,christchurch,-43.53,172.63,6.11,81,11,3.6,NZ,1595444391
293,urzhum,57.11,50.0,16.36,88,7,0.56,RU,1595444381
294,ketchikan,55.34,-131.65,16.0,82,75,6.2,US,1595444581
295,mancio lima,-7.61,-72.9,32.6,45,86,0.86,BR,1595444581
296,pedasi,7.53,-80.03,28.0,73,100,3.52,PA,1595444581
297,tomatlan,19.93,-105.25,33.18,50,100,4.07,MX,1595444581
298,quatre cocos,-20.21,57.76,20.0,68,40,5.1,MU,1595444284
299,bamiantong,44.93,130.53,16.43,68,27,1.16,CN,1595444583
300,umm kaddadah,13.6,26.69,29.72,54,55,9.64,SD,1595444583
301,marawi,8.0,124.29,25.0,90,100,2.68,PH,1595444385
302,erdemli,36.6,34.31,28.22,62,0,1.33,TR,1595444583
303,kargil,34.57,76.1,12.56,43,3,1.44,IN,1595444583
304,meulaboh,4.14,96.13,24.75,86,100,0.37,ID,1595444072
305,salasu de sus,45.52,22.95,17.98,78,4,1.63,RO,1595444584
306,sjovegan,68.87,17.85,11.0,87,75,7.7,NO,1595444584
307,cururupu,-1.83,-44.87,30.2,52,0,2.48,BR,1595444584
308,vanimo,-2.67,141.3,25.32,85,6,2.05,PG,1595444352
309,port blair,11.67,92.75,28.02,75,100,0.65,IN,1595444586
310,luoyang,34.68,112.45,22.78,1,42,1.39,CN,1595444586
311,wittmund,53.57,7.78,15.56,62,75,2.1,DE,1595444587
312,vostok,46.49,135.88,14.23,98,92,1.23,RU,1595444587
313,meadow lake,34.8,-106.54,29.0,47,90,9.8,US,1595444410
314,juegang,32.32,121.19,28.89,87,100,3.97,CN,1595444588
315,sioux lookout,50.1,-91.92,26.0,41,75,1.5,CA,1595444588
316,iqaluit,63.75,-68.51,9.0,81,90,1.0,CA,1595444308
317,trincomalee,8.57,81.23,27.63,77,100,3.37,LK,1595444589
318,provideniya,64.38,-173.3,11.84,59,0,2.27,RU,1595444086
319,bethel,41.37,-73.41,31.11,58,40,3.1,US,1595444061
320,shaunavon,49.65,-108.42,30.38,31,0,5.29,CA,1595444590
321,qaracala,39.81,48.95,25.68,53,6,3.79,AZ,1595444590
322,mahajanga,-15.72,46.32,24.0,50,20,5.7,MG,1595444591
323,ucluelet,48.93,-125.55,16.11,100,90,2.1,CA,1595444090
324,kavieng,-2.57,150.8,27.85,77,10,5.93,PG,1595444361
325,cidreira,-30.18,-50.21,22.11,68,100,2.38,BR,1595444061
326,fort nelson,58.81,-122.7,15.0,87,90,4.1,CA,1595444082
327,touros,-5.2,-35.46,27.0,69,40,4.6,BR,1595444342
328,cap malheureux,-19.98,57.61,18.33,76,62,0.89,MU,1595444362
329,dukat,62.55,155.55,12.47,45,11,2.49,RU,1595444593
330,nakamura,32.98,132.93,23.69,92,94,0.87,JP,1595444593
331,walvis bay,-22.96,14.51,23.0,28,0,1.0,NA,1595444451
332,pisco,-13.7,-76.22,19.44,77,4,4.1,PE,1595444103
333,astana,51.18,71.45,12.0,93,0,3.0,KZ,1595444486
334,uspenka,48.39,39.16,19.54,71,0,4.24,UA,1595444593
335,torring,55.85,9.48,14.44,71,100,4.1,DK,1595444593
336,roald,62.58,6.13,11.0,71,75,4.1,NO,1595444393
337,saint-pierre,-21.34,55.48,20.0,56,90,3.6,RE,1595444594
338,barcelos,41.54,-8.62,27.78,69,0,2.1,PT,1595444401
339,alghero,40.56,8.32,27.0,51,0,2.1,IT,1595444583
340,kikwit,-5.04,18.82,27.96,24,10,0.32,CD,1595444594
341,lukulu,-14.37,23.24,15.65,34,0,1.51,ZM,1595444594
342,berlevag,70.86,29.09,9.0,100,75,7.2,NO,1595444443
343,bubaque,11.28,-15.83,27.11,81,48,4.45,GW,1595444286
344,ilo,-17.64,-71.34,19.0,72,75,2.6,PE,1595444596
345,sikonge,-5.63,32.77,21.0,56,2,1.56,TZ,1595444596
346,jinchang,38.5,102.17,22.29,51,100,2.27,CN,1595444596
347,bichena,10.45,38.2,14.22,93,100,1.83,ET,1595444596
348,olafsvik,64.89,-23.71,9.87,68,94,4.19,IS,1595444331
349,fairbanks,64.84,-147.72,13.0,87,90,1.23,US,1595444305
350,perth,-31.93,115.83,17.22,72,75,4.6,AU,1595443960
351,kidal,18.44,1.41,38.11,22,16,1.93,ML,1595444597
352,barreiras,-12.15,-44.99,31.75,22,57,3.46,BR,1595444505
353,tortoli,39.93,9.66,27.0,83,20,5.1,IT,1595444598
354,sidi ali,36.1,0.42,25.45,68,0,2.95,DZ,1595444598
355,mbandaka,0.05,18.26,25.01,63,100,0.92,CD,1595444598
356,batangafo,7.3,18.28,23.14,83,87,0.51,CF,1595444599
357,alta floresta,-9.88,-56.09,36.0,23,0,2.6,BR,1595444600
358,rassvet,46.83,40.75,22.39,57,35,3.87,RU,1595444600
359,richards bay,-28.78,32.04,16.53,84,0,3.35,ZA,1595444357
360,caianu mic,47.23,24.15,21.0,82,2,1.5,RO,1595444600
361,nalut,30.33,10.85,28.96,23,0,6.02,LY,1595444527
362,ahuimanu,21.44,-157.84,27.0,78,20,3.25,US,1595444600
363,singaraja,-8.11,115.09,24.89,72,33,2.57,ID,1595444600
364,poronaysk,49.22,143.12,11.01,91,100,1.15,RU,1595444601
365,xam nua,20.42,104.04,18.95,92,0,1.01,LA,1595444602
366,valleyview,55.07,-117.29,23.01,45,0,1.87,CA,1595444602
367,santa maria,-29.68,-53.81,25.62,68,100,2.38,BR,1595444525
368,trairi,-3.28,-39.27,27.86,59,22,5.93,BR,1595444505
369,chernyy yar,48.06,46.11,26.06,37,70,2.78,RU,1595444602
370,saint-augustin,51.23,-58.65,20.6,48,95,4.45,CA,1595444419
371,san policarpo,12.18,125.51,27.65,76,0,0.94,PH,1595444337
372,cedar city,37.68,-113.06,29.0,18,20,5.7,US,1595444558
373,padang,-0.95,100.35,23.0,100,40,3.6,ID,1595444431
374,narsaq,60.92,-46.05,20.0,24,40,11.8,GL,1595444335
375,vermillion,42.78,-96.93,28.33,51,20,3.1,US,1595444603
376,kabansk,52.05,106.65,19.0,63,20,2.0,RU,1595444603
377,acapulco,16.86,-99.89,30.0,74,40,2.6,MX,1595444374
378,aykhal,66.0,111.5,11.75,93,100,3.83,RU,1595444604
379,valparaiso,-33.04,-71.63,15.0,76,40,3.1,CL,1595444364
380,havelock,34.88,-76.9,34.0,59,40,5.7,US,1595444605
381,korla,41.76,86.15,26.67,77,100,0.89,CN,1595444392
382,half moon bay,37.46,-122.43,22.22,72,20,3.1,US,1595444606
383,seymchan,62.88,152.43,16.15,62,76,2.37,RU,1595444535
384,souillac,-20.52,57.52,20.0,68,40,5.1,MU,1595444111
385,lebu,-37.62,-73.65,12.26,71,15,0.61,CL,1595444346
386,belmonte,-15.86,-38.88,26.0,54,40,4.1,BR,1595444543
387,along,28.17,94.77,22.65,88,100,0.68,IN,1595444384
388,bowen,-20.02,148.23,17.78,93,90,2.1,AU,1595444374
389,auki,-8.77,160.7,25.16,86,91,1.54,SB,1595444348
390,wanning,18.8,110.4,27.29,82,2,3.06,CN,1595444052
391,jumla,29.27,82.18,16.8,71,100,1.23,NP,1595444610
392,bure,10.7,37.07,14.88,96,100,0.97,ET,1595444611
393,iskateley,67.68,53.15,18.19,67,0,4.83,RU,1595444611
394,muroto,33.28,134.15,25.49,85,99,0.69,JP,1595444611
395,dabola,10.75,-11.12,24.66,87,95,0.16,GN,1595444612
396,gornyy,55.12,83.91,10.49,95,0,2.28,RU,1595444612
397,szodliget,47.73,19.15,25.56,78,9,1.0,HU,1595444613
398,gazanjyk,39.24,55.52,31.04,46,0,5.78,TM,1595444613
399,sola,-13.88,167.55,26.0,69,40,4.6,VU,1595444099
400,berehove,48.21,22.64,22.22,66,0,0.89,UA,1595444614
401,moose factory,51.26,-80.61,17.0,77,1,4.1,CA,1595444615
402,radomsko,51.07,19.44,17.78,64,0,25.03,PL,1595444390
403,naryan-mar,67.67,53.09,18.24,68,0,4.83,RU,1595444346
404,bangui,4.36,18.55,23.12,87,100,1.08,CF,1595444615
405,asfi,32.3,-9.24,23.51,77,0,8.69,MA,1595444104
406,muros,42.78,-9.06,30.0,54,0,3.6,ES,1595444366
407,dalbandin,28.89,64.41,28.93,45,0,4.17,PK,1595444617
408,batsfjord,70.63,29.72,9.0,100,75,6.7,NO,1595444617
409,warrnambool,-38.38,142.48,7.22,96,100,2.81,AU,1595444449
410,nuuk,64.18,-51.72,16.0,59,20,5.1,GL,1595444528
411,alekseyevsk,57.84,108.35,14.48,87,100,0.53,RU,1595444619
412,galveston,29.37,-94.97,32.0,70,40,3.6,US,1595444619
413,mapiripan,2.89,-72.13,27.32,81,62,3.64,CO,1595444619
414,abu zabad,12.35,29.25,26.52,67,92,6.67,SD,1595444619
415,quelimane,-17.88,36.89,18.24,85,27,2.57,MZ,1595444620
416,nikel,69.41,30.22,11.0,93,40,11.8,RU,1595444620
417,gorele,41.03,39.0,24.0,78,40,1.5,TR,1595444620
418,mokhsogollokh,61.47,128.92,12.62,95,37,1.66,RU,1595444620
419,surt,31.21,16.59,25.18,75,0,5.24,LY,1595444620
420,ixtapa,20.7,-105.2,32.22,79,40,3.6,MX,1595444359
421,vihari,30.03,72.35,34.19,40,0,2.24,PK,1595444426
422,valdivia,-39.81,-73.25,11.0,57,100,3.6,CL,1595444621
423,osakarovka,50.56,72.57,15.29,67,0,3.38,KZ,1595444305
424,flinders,-34.58,150.86,8.33,85,9,1.34,AU,1595444344
425,chubbuck,42.92,-112.47,27.22,33,75,2.6,US,1595444621
426,tungor,53.38,142.96,10.35,94,100,4.46,RU,1595444621
427,owo,7.2,5.59,22.34,97,94,2.31,NG,1595444622
428,port elizabeth,-33.92,25.57,15.0,100,0,2.6,ZA,1595444061
429,esperance,-33.87,121.9,13.0,58,40,8.2,AU,1595444386
430,yarada,17.65,83.27,29.0,83,90,3.6,IN,1595444623
431,santa isabel do rio negro,-0.41,-65.02,32.81,47,5,1.75,BR,1595444396
432,lander,42.83,-108.73,30.0,21,1,2.1,US,1595444600
433,dingle,11.0,122.67,24.77,86,38,1.63,PH,1595444097
434,taoudenni,22.68,-3.98,44.01,12,76,5.31,ML,1595444311
435,okha,53.57,142.95,10.45,93,100,4.69,RU,1595444624
436,manyana,-23.4,21.72,10.56,41,0,2.4,BW,1595444624
437,kathu,7.92,98.33,29.44,94,20,1.0,TH,1595444624
438,nurlat,54.43,50.81,16.76,92,100,2.45,RU,1595444625
439,toamasina,-18.17,49.38,18.0,93,75,5.1,MG,1595444625
440,santiago del estero,-27.8,-64.26,16.28,46,100,5.85,AR,1595444327
441,omsukchan,62.53,155.8,13.41,46,23,2.65,RU,1595444363
442,praia,14.92,-23.51,28.0,74,20,4.6,CV,1595444417
443,mamou,10.5,-12.0,22.72,92,100,1.04,GN,1595444625
444,nushki,29.55,66.02,30.29,28,0,8.26,PK,1595444430
445,cockburn town,21.46,-71.14,30.0,66,40,6.2,TC,1595444384
446,sangar,63.92,127.47,15.29,64,27,6.09,RU,1595444626
447,okakarara,-20.58,17.43,11.14,41,0,2.31,NA,1595444626
448,manokwari,-0.87,134.08,26.41,72,4,1.54,ID,1595444446
449,coihaique,-45.58,-72.07,1.0,74,75,2.1,CL,1595444388
450,raga,8.46,25.68,20.27,97,100,0.7,SS,1595444148
451,keskin,39.67,33.61,23.33,40,0,5.81,TR,1595444422
452,vesyegonsk,58.66,37.26,12.36,90,0,2.16,RU,1595444627
453,las palmas,28.42,-14.01,24.0,78,20,8.2,ES,1595444628
454,maningrida,-12.07,134.27,15.84,90,0,3.22,AU,1595444628
455,topchikha,52.82,83.12,15.0,72,0,2.0,RU,1595444628
456,grand gaube,-20.01,57.66,18.33,76,67,0.89,MU,1595444089
457,waipawa,-41.41,175.52,11.0,71,0,7.2,NZ,1595444027
458,asheboro,35.71,-79.81,32.78,55,75,3.6,US,1595444628
459,ati,13.22,18.34,30.92,53,76,2.29,TD,1595444526
460,malkangiri,18.35,81.9,27.0,83,99,0.67,IN,1595444543
461,akyab,20.15,92.9,26.32,90,100,5.56,MM,1595444370
462,taybad,34.74,60.78,26.78,16,0,4.61,IR,1595444629
463,boueni,-12.9,45.08,24.0,64,25,6.7,YT,1595444629
464,beira,-19.84,34.84,19.85,74,8,5.77,MZ,1595444629
465,nizhneudinsk,54.91,99.03,12.2,89,67,1.41,RU,1595444629
466,nan,18.83,100.67,22.08,95,65,0.05,TH,1595444629
467,catamarca,-28.47,-65.79,12.78,74,0,1.34,AR,1595444465
468,tura,25.52,90.22,23.74,98,100,2.38,IN,1595444332
469,pemberton,50.32,-122.8,20.0,68,75,2.26,CA,1595444630
470,kholmogory,64.22,41.66,18.0,93,40,4.0,RU,1595444630
471,bhuban,20.88,85.83,27.27,84,100,1.89,IN,1595444405
472,krasnoselkup,65.7,82.47,12.54,85,100,7.85,RU,1595444631
473,lozova,48.89,36.32,15.58,70,0,3.4,UA,1595444632
474,galesong,-5.32,119.37,24.0,100,20,1.0,ID,1595444632
475,henties bay,-22.12,14.28,19.44,56,0,0.45,NA,1595444632
476,kem,64.96,34.58,14.9,87,100,5.51,RU,1595444632
477,merauke,-8.47,140.33,23.5,84,0,5.57,ID,1595444574
478,chimore,-16.98,-65.13,28.37,53,92,1.19,BO,1595444633
479,charagua,-19.8,-63.22,29.91,35,10,4.05,BO,1595444633
480,mutoko,-17.4,32.23,11.18,69,0,2.87,ZW,1595444633
481,tierra colorada,17.17,-99.58,30.0,70,40,2.6,MX,1595444633
482,babu,24.42,111.52,26.25,75,70,1.05,CN,1595444633
483,kuhdasht,33.53,47.61,25.8,17,0,2.3,IR,1595444633
484,usvyaty,55.75,30.75,12.05,92,100,3.61,RU,1595444633
485,soyo,-6.13,12.37,22.2,83,1,3.68,AO,1595444635
486,luba,3.46,8.55,26.0,94,40,2.6,GQ,1595444635
487,ramnagar,29.4,79.12,24.72,76,0,0.68,IN,1595444635
488,huntington,38.42,-82.45,33.33,58,75,2.1,US,1595444574
489,san blas,21.52,-105.27,29.0,62,40,3.86,MX,1595444635
490,port angeles,48.12,-123.43,17.0,77,90,4.1,US,1595444544
491,rabo de peixe,37.8,-25.58,21.0,60,75,3.1,PT,1595444635
492,calabozo,8.92,-67.43,29.19,75,61,2.94,VE,1595444635
493,nador,35.17,-2.93,27.0,78,1,2.6,MA,1595444533
494,solntsevo,51.42,36.75,14.0,58,0,3.0,RU,1595444637
495,isangel,-19.55,169.27,20.44,77,2,6.06,VU,1595444349
496,axim,4.87,-2.24,23.99,88,83,3.7,GH,1595444273
497,nhulunbuy,-12.23,136.77,21.0,88,55,2.1,AU,1595444117
498,limbe,4.02,9.21,26.0,94,75,1.5,CM,1595444637
499,mvuma,-19.28,30.53,10.57,58,0,4.47,ZW,1595444637
500,blyth,55.13,-1.51,17.22,72,40,4.1,GB,1595444637
501,barcelona,41.39,2.16,28.0,74,20,2.6,ES,1595444504
502,ust-kuyga,70.02,135.6,23.25,56,64,0.6,RU,1595444638
503,ewa beach,21.32,-158.01,27.0,74,1,1.5,US,1595444638
504,mackenzie,55.3,-123.17,15.0,87,1,2.1,CA,1595444314
505,tutoia,-2.76,-42.27,28.0,59,50,3.78,BR,1595444638
506,hervey bay,-25.3,152.85,14.44,95,100,4.02,AU,1595444291
507,mathbaria,22.29,89.96,26.81,87,100,4.34,BD,1595444638
508,la romana,18.43,-68.97,33.0,55,40,8.2,DO,1595444518
509,koslan,63.46,48.9,20.38,65,78,4.31,RU,1595444639
510,ratnagiri,16.98,73.3,27.43,87,100,1.48,IN,1595444639
511,matamoros,25.53,-103.25,30.0,45,75,3.1,MX,1595444319
512,kindu,-2.95,25.95,25.67,50,74,0.37,CD,1595444639
513,grasse,43.67,6.92,26.0,69,65,1.5,FR,1595444639
514,broome,42.25,-75.83,30.0,57,40,3.6,US,1595444330
515,adjumani,3.38,31.79,20.32,91,98,1.0,UG,1595444640
516,wolgast,54.05,13.77,16.67,59,92,0.45,DE,1595444640
517,cruzeiro do sul,-29.51,-51.99,25.48,74,100,1.6,BR,1595444446
518,gamba,-2.65,10.0,21.6,86,8,3.41,GA,1595444510
519,lagoa,39.05,-27.98,21.07,72,0,1.2,PT,1595444115
520,komsomolskiy,40.43,71.72,27.0,34,0,3.1,UZ,1595444349
521,chicama,-7.84,-79.15,22.12,56,21,5.11,PE,1595444537
522,udachnyy,66.42,112.4,13.49,92,79,5.63,RU,1595444641
523,whitehorse,60.72,-135.05,15.56,87,75,1.0,CA,1595444546
524,aktash,50.3,87.73,7.61,95,100,0.68,RU,1595444642
525,porto novo,6.5,2.6,25.0,88,20,5.1,BJ,1595444534
526,banda aceh,5.56,95.32,25.48,84,100,4.15,ID,1595444407
527,pahrump,36.21,-115.98,37.22,11,15,2.68,US,1595444418
528,shymkent,42.3,69.6,27.0,30,70,2.0,KZ,1595444643
529,katherine,-14.47,132.27,15.0,41,0,3.6,AU,1595444643
530,kaseda,31.42,130.32,23.89,94,100,2.24,JP,1595444644
531,nemuro,43.32,145.57,15.4,97,100,5.5,JP,1595444644
532,kisangani,0.52,25.2,23.57,78,99,0.42,CD,1595444644
533,shahrud,36.42,54.98,24.66,53,0,3.72,IR,1595444644
534,peniche,39.36,-9.38,20.56,91,0,1.34,PT,1595444644
535,danielskuil,-28.19,23.54,6.31,54,0,0.9,ZA,1595444644
536,kruisfontein,-34.0,24.73,12.81,82,0,2.03,ZA,1595444342
537,ahipara,-35.17,173.17,13.62,71,38,6.82,NZ,1595444111
538,vredendal,-31.67,18.5,15.67,51,0,0.25,ZA,1595444317
539,yar-sale,66.83,70.83,8.57,77,50,3.04,RU,1595444398
540,veraval,20.9,70.37,28.8,81,100,5.77,IN,1595444645
541,nouadhibou,20.93,-17.03,24.0,78,3,8.2,MR,1595444646
542,rawson,-43.3,-65.1,5.41,66,100,5.58,AR,1595444633
543,saint george,37.1,-113.58,36.67,19,1,3.6,US,1595444320
544,buncrana,55.13,-7.45,19.0,77,75,3.1,IE,1595444646
545,kerchevskiy,59.95,56.29,15.91,79,100,2.59,RU,1595444647
546,tuatapere,-46.13,167.68,3.89,83,100,1.34,NZ,1595444307
547,amboasary,-25.03,46.38,19.0,68,40,1.0,MG,1595444647
548,bonavista,48.65,-53.11,19.11,60,60,2.32,CA,1595444381
549,dudinka,69.41,86.18,12.0,87,3,10.0,RU,1595444647
550,baculin,7.45,126.58,25.45,76,100,1.92,PH,1595444376
551,shingu,33.73,135.98,23.24,88,100,1.59,JP,1595444647
552,kemin,42.78,75.69,18.22,45,73,2.65,KG,1595444648
553,rio gallegos,-51.62,-69.22,-6.0,85,0,4.1,AR,1595444299
554,xinzhi,36.5,111.7,20.7,69,0,0.78,CN,1595444648
555,abbeville,50.1,1.83,20.0,56,0,2.35,FR,1595444648
556,kholm-zhirkovskiy,55.52,33.47,12.0,85,93,4.02,RU,1595444648
557,nabire,-3.37,135.48,24.2,89,61,1.52,ID,1595444649
558,otane,-39.88,176.63,10.0,81,0,5.36,NZ,1595444649
559,senanga,-16.12,23.27,14.83,36,0,2.49,ZM,1595444526
560,port hawkesbury,45.62,-61.35,25.56,44,1,5.1,CA,1595444398
561,rovnoye,50.78,46.05,21.93,61,55,2.27,RU,1595444649
562,dondo,-19.61,34.74,16.91,85,6,2.62,MZ,1595444650
563,kabare,-2.47,28.82,16.59,68,89,0.46,CD,1595444650
564,andenes,69.31,16.12,11.0,93,75,3.1,NO,1595444458
565,matagami,49.75,-77.63,24.0,44,20,0.37,CA,1595444416
566,lovozero,68.0,35.01,17.22,83,78,4.61,RU,1595444650
567,talnakh,69.49,88.4,12.0,87,10,10.0,RU,1595444060
568,maumere,-8.62,122.21,24.26,78,77,2.97,ID,1595444651
569,alzamay,55.56,98.66,11.22,95,0,2.01,RU,1595444651
570,constantine,36.37,6.61,33.0,24,0,4.6,DZ,1595444439
571,orlik,52.52,99.83,12.07,83,100,0.59,RU,1595444652
572,san jose,37.34,-121.89,25.0,41,0,1.79,US,1595444653
573,flin flon,54.77,-101.86,25.0,61,40,3.1,CA,1595444360
574,benghazi,32.12,20.07,24.98,73,0,5.18,LY,1595444528
575,angoram,-4.06,144.07,22.62,98,25,0.93,PG,1595444654
